SALE TYPE,SOLD DATE,PROPERTY TYPE,ADDRESS,CITY,STATE OR PROVINCE,ZIP OR POSTAL CODE,PRICE,BEDS,BATHS,LOCATION,SQUARE FEET,LOT SIZE,YEAR BUILT,DAYS ON MARKET,$/SQUARE FEET,HOA/MONTH,STATUS,NEXT OPEN HOUSE START TIME,NEXT OPEN HOUSE END TIME,URL (SEE https://www.redfin.com/buy-a-home/comparative-market-analysis FOR INFO ON PRICING),SOURCE,MLS#,FAVORITE,INTERESTED,LATITUDE,LONGITUDE
"In accordance with local MLS rules, some MLS listings are not included in the download"
MLS Listing,,Condo/Co-op,2504 Western Ave #221,Seattle,WA,98121,289000,0,1.0,Belltown,525,,1998,84,550,408,Active,,,https://www.redfin.com/WA/Seattle/2504-Western-Ave-98121/unit-221/home/104019267,NWMLS as Distributed by MLS Grid,2282192,N,Y,47.6142816,-122.3497861
MLS Listing,,Condo/Co-op,108 5th Ave S #512,Seattle,WA,98104,328500,0,1.0,International District,512,,2001,87,642,440,Active,,,https://www.redfin.com/WA/Seattle/108-5th-Ave-S-98104/unit-512/home/12090927,NWMLS as Distributed by MLS Grid,2275617,N,Y,47.6013297,-122.3272284
MLS Listing,,Condo/Co-op,1808 Minor Ave #2104,Seattle,WA,98101,378000,0,1.0,Denny Triangle,378,2152,2020,9,1000,420,Active,,,https://www.redfin.com/WA/Seattle/1808-Minor-Ave-98101/unit-2104/home/172710470,NWMLS as Distributed by MLS Grid,2310387,N,Y,47.61699,-122.3305817
MLS Listing,,Condo/Co-op,321 Boylston Ave E #107,Seattle,WA,98102,232500,0,1.0,Capitol Hill,223,,1925,14,1043,199,Active,November-24-2024 12:00 PM,November-24-2024 02:00 PM,https://www.redfin.com/WA/Seattle/321-Boylston-Ave-E-98102/unit-107/home/49753,NWMLS as Distributed by MLS Grid,2309142,N,Y,47.6217904,-122.3233454
MLS Listing,,Condo/Co-op,1808 Minor Ave #1409,Seattle,WA,98101,420000,0,1.0,Denny Triangle,420,,2020,28,1000,466,Active,,,https://www.redfin.com/WA/Seattle/1808-Minor-Ave-98101/unit-1409/home/171200425,NWMLS as Distributed by MLS Grid,2305320,N,Y,47.61699,-122.3305817
MLS Listing,,Condo/Co-op,800 Columbia St #710,Seattle,WA,98104,350000,0,1.0,Downtown,409,,2023,29,856,429,Active,,,https://www.redfin.com/WA/Seattle/800-Columbia-St-98104/unit-710/home/178794960,NWMLS as Distributed by MLS Grid,2305247,N,Y,47.6067442,-122.3271536
MLS Listing,,Condo/Co-op,9030 Seward Park Ave S #500,Seattle,WA,98118,199000,0,1.0,Rainier Beach,465,,1971,30,428,245,Active,,,https://www.redfin.com/WA/Seattle/9030-Seward-Park-Ave-S-98118/unit-500/home/190499915,NWMLS as Distributed by MLS Grid,2301181,N,Y,47.5221212,-122.2637096
MLS Listing,,Condo/Co-op,2600 2nd Ave #309,Seattle,WA,98121,360000,0,1.0,Belltown,474,25918,1999,32,759,512,Active,,,https://www.redfin.com/WA/Seattle/2600-2nd-Ave-98121/unit-309/home/70045,NWMLS as Distributed by MLS Grid,2303251,N,Y,47.6166367,-122.3491593
MLS Listing,,Condo/Co-op,2840 SW Raymond St #303,Seattle,WA,98126,299000,0,1.0,High Point,404,,2007,36,740,386,Active,,,https://www.redfin.com/WA/Seattle/2840-SW-Raymond-St-98126/unit-303/home/12305820,NWMLS as Distributed by MLS Grid,2300262,N,Y,47.5483632,-122.3693837
MLS Listing,,Condo/Co-op,1300 University St Unit F2,Seattle,WA,98101,295000,0,1.0,Seattle,381,,1980,40,774,309,Active,November-24-2024 11:00 AM,November-24-2024 01:00 PM,https://www.redfin.com/WA/Seattle/1300-University-St-98101/unit-2F/home/191524573,NWMLS as Distributed by MLS Grid,2301496,N,Y,47.6127116,-122.3247742
MLS Listing,,Condo/Co-op,4020 Aurora Ave N #108,Seattle,WA,98103,299950,0,1.0,Wallingford,492,,2002,42,610,384,Active,,,https://www.redfin.com/WA/Seattle/4020-Aurora-Ave-N-98103/unit-108/home/40922,NWMLS as Distributed by MLS Grid,2299495,N,Y,47.6561593,-122.3467937
MLS Listing,,Condo/Co-op,1323 Boren Ave #311,Seattle,WA,98101,279000,0,1.0,First Hill,407,,2001,43,686,353,Active,,,https://www.redfin.com/WA/Seattle/1323-Boren-Ave-98101/unit-311/home/2119967,NWMLS as Distributed by MLS Grid,2296797,N,Y,47.6120881,-122.3282811
MLS Listing,,Condo/Co-op,1545 NW 57th St #507,Seattle,WA,98107,320000,0,1.0,Ballard,514,,2003,58,623,374,Active,,,https://www.redfin.com/WA/Seattle/1545-NW-57th-St-98107/unit-507/home/176031045,NWMLS as Distributed by MLS Grid,2293838,N,Y,47.6699146,-122.3784177
MLS Listing,,Condo/Co-op,233 14th Ave E #206,Seattle,WA,98112,299000,0,1.0,Capitol Hill,420,,1928,58,712,370,Active,,,https://www.redfin.com/WA/Seattle/233-14th-Ave-E-98112/unit-206/home/190671709,NWMLS as Distributed by MLS Grid,2294934,N,Y,47.6209544,-122.3146462
MLS Listing,,Condo/Co-op,1707 Boylston Ave #206,Seattle,WA,98122,257500,0,1.0,Capitol Hill,395,15039,1965,63,652,432,Active,,,https://www.redfin.com/WA/Seattle/1707-Boylston-Ave-98122/unit-206/home/191519608,NWMLS as Distributed by MLS Grid,2290903,N,Y,47.616649,-122.3237235
MLS Listing,,Condo/Co-op,1414 12th Ave #204,Seattle,WA,98122,320000,0,1.0,Capitol Hill,488,,2007,70,656,625,Active,,,https://www.redfin.com/WA/Seattle/1414-12th-Ave-98122/unit-204/home/17382890,NWMLS as Distributed by MLS Grid,2290337,N,Y,47.6135951,-122.3163913
MLS Listing,,Condo/Co-op,4116 California Ave SW #201,Seattle,WA,98116,350000,0,1.0,Alaska Junction,520,,2009,73,673,236,Active,,,https://www.redfin.com/WA/Seattle/4116-California-Ave-SW-98116/unit-201/home/190500283,NWMLS as Distributed by MLS Grid,2288879,N,Y,47.5658572,-122.3864761
MLS Listing,,Condo/Co-op,600 N 85th St #211,Seattle,WA,98103,247000,0,1.0,Greenwood,452,,1999,85,546,377,Active,,,https://www.redfin.com/WA/Seattle/600-N-85th-St-98103/unit-211/home/31815,NWMLS as Distributed by MLS Grid,2283305,N,Y,47.6907801,-122.3508792
MLS Listing,,Condo/Co-op,120 NW 39th St #104,Seattle,WA,98107,355000,0,1.0,Fremont,438,,1988,93,811,430,Active,,,https://www.redfin.com/WA/Seattle/120-NW-39th-St-98107/unit-104/home/12318173,NWMLS as Distributed by MLS Grid,2279676,N,Y,47.6543686,-122.3583779
MLS Listing,,Condo/Co-op,1545 NW 57th St #224,Seattle,WA,98107,319000,0,1.0,Ballard,451,,2003,119,707,341,Active,,,https://www.redfin.com/WA/Seattle/1545-NW-57th-St-98107/unit-224/home/176044541,NWMLS as Distributed by MLS Grid,2270027,N,Y,47.6699146,-122.3784177
MLS Listing,,Condo/Co-op,668 S Lane St #407,Seattle,WA,98104,285000,0,1.0,International District,509,,2002,119,560,296,Active,,,https://www.redfin.com/WA/Seattle/668-S-Lane-St-98104/unit-407/home/2117044,NWMLS as Distributed by MLS Grid,2270480,N,Y,47.5968907,-122.324097
MLS Listing,,Condo/Co-op,4547 8th Ave NE #308,Seattle,WA,98105,349000,0,1.0,University District,373,,2008,121,936,535,Active,,,https://www.redfin.com/WA/Seattle/4547-8th-Ave-NE-98105/unit-308/home/190504155,NWMLS as Distributed by MLS Grid,2269154,N,Y,47.6628143,-122.3199182
MLS Listing,,Condo/Co-op,819 Virginia St #1808,Seattle,WA,98101,320000,0,1.0,Denny Triangle,419,,2007,169,764,464,Active,,,https://www.redfin.com/WA/Seattle/819-Virginia-St-98101/unit-1808/home/12304692,NWMLS as Distributed by MLS Grid,2246832,N,Y,47.6160389,-122.3357053
MLS Listing,,Condo/Co-op,600 N 85th St #411,Seattle,WA,98103,250000,0,1.0,Greenwood,452,,1999,189,553,413,Active,,,https://www.redfin.com/WA/Seattle/600-N-85th-St-98103/unit-411/home/51693,NWMLS as Distributed by MLS Grid,2239308,N,Y,47.6907801,-122.3508792
MLS Listing,,Condo/Co-op,424 N 85th St #304,Seattle,WA,98103,299000,0,1.0,Greenwood,455,,2006,210,657,326,Active,,,https://www.redfin.com/WA/Seattle/424-N-85th-St-98103/unit-304/home/22695607,NWMLS as Distributed by MLS Grid,2226444,N,Y,47.6910854,-122.352891
New Construction Plan,,Condo/Co-op,Basement Studio Plan,Seattle,WA,98122,195000,0,1.0,Seattle,427,,,51,457,250,Active,,,https://www.redfin.com/WA/Seattle/Seattle/Basement-Studio/home/192900779,Zillow,47D38E0B2E47,N,Y,47.6161336,-122.3146091
New Construction Plan,,Condo/Co-op,Studio Plan,Seattle,WA,98104,419900,0,1.0,Seattle,609,,,286,689,,Active,,,https://www.redfin.com/WA/Seattle/Seattle/Studio/home/189689695,Zillow,55B9BA01EA92,N,Y,47.6066658,-122.3271698
